$GPGGA,204755.000,3017.3548,N,09744.1552,W,2,07,1.18,222.6,M,-22.5,M,0000,0000*5D

$GPGSA,A,3,23,09,26,31,03,16,22,,,,,,2.05,1.18,1.67*07

$GPRMC,204755.000,A,3017.3548,N,09744.1552,W,0.02,288.86,150217,,,D*74

$GPVTG,288.86,T,,M,0.02,N,0.04,K,D*32

$GPGGA,204756.000,3017.3548,N,09744.1552,W,2,07,1.18,222.6,M,-22.5,M,0000,0000*5E

$GPGSA,A,3,23,09,26,31,03,16,22,,,,,,2.05,1.18,1.67*07

$GPGSV,3,1,12,16,75,080,39,23,55,329,49,03,53,230,27,51,53,198,31*7A

$GPGSV,3,2,12,26,47,046,44,22,43,204,22,27,21,140,,09,18,314,31*78

$GPGSV,3,3,12,31,14,062,36,07,12,267,,08,05,173,,14,,,17*40

$GPRMC,204756.000,A,3017.3548,N,09744.1552,W,0.01,256.62,150217,,,D*7D

$GPVTG,256.62,T,,M,0.01,N,0.01,K,D*3D

$GPGGA,204757.000,3017.3548,N,09744.1552,W,2,07,1.18,222.6,M,-22.5,M,0000,0000*5F

$GPGSA,A,3,23,09,26,31,03,16,22,,,,,,2.05,1.18,1.67*07

$GPRMC,204757.000,A,3017.3548,N,09744.1552,W,0.02,219.81,150217,,,D*79

$GPVTG,219.81,T,,M,0.02,N,0.04,K,D*3D

$GPGGA,204758.000,3017.3548,N,09744.1552,W,2,06,1.82,222.6,M,-22.5,M,0000,0000*52

$GPGSA,A,3,23,26,31,03,16,22,,,,,,,2.95,1.82,2.32*07

$GPRMC,204758.000,A,3017.3548,N,09744.1552,W,0.02,128.91,150217,,,D*76

$GPVTG,128.91,T,,M,0.02,N,0.03,K,D*3A

$GPGGA,204759.000,3017.3548,N,09744.1552,W,2,06,1.82,222.6,M,-22.5,M,0000,0000*53

$GPGSA,A,3,23,26,31,03,16,22,,,,,,,2.95,1.82,2.32*07

$GPRMC,204759.000,A,3017.3548,N,09744.1552,W,0.03,229.40,150217,,,D*78

$GPVTG,229.40,T,,M,0.03,N,0.05,K,D*33

$GPGGA,204800.000,3017.3548,N,09744.1552,W,2,06,1.82,222.6,M,-22.5,M,0000,0000*50

$GPGSA,A,3,23,26,31,03,16,22,,,,,,,2.95,1.82,2.32*07

$GPRMC,204800.000,A,3017.3548,N,09744.1552,W,0.03,189.57,150217,,,D*74

$GPVTG,189.57,T,,M,0.03,N,0.06,K,D*3F

$GPGGA,204801.000,3017.3548,N,09744.1552,W,2,07,1.18,222.6,M,-22.5,M,0000,0000*53

$GPGSA,A,3,23,09,26,31,03,16,22,,,,,,2.04,1.18,1.67*06

$GPGSV,3,1,12,16,75,080,37,23,55,329,48,03,53,230,29,51,53,198,27*7C

$GPGSV,3,2,12,26,47,046,45,22,43,204,22,27,21,140,,09,18,314,29*70

$GPGSV,3,3,12,31,14,062,29,07,12,268,,08,06,173,,14,,,17*42

$GPRMC,204801.000,A,3017.3548,N,09744.1552,W,0.01,194.01,150217,,,D*78

$GPVTG,194.01,T,,M,0.01,N,0.01,K,D*35

$GPGGA,204802.000,3017.3548,N,09744.1552,W,2,07,1.18,222.6,M,-22.5,M,0000,0000*50

$GPGSA,A,3,23,09,26,31,03,16,22,,,,,,2.04,1.18,1.67*06

$GPRMC,204802.000,A,3017.3548,N,09744.1552,W,0.01,349.18,150217,,,D*71

$GPVTG,349.18,T,,M,0.01,N,0.02,K,D*3C

$GPGGA,204803.000,3017.3548,N,09744.1552,W,2,07,1.18,222.5,M,-22.5,M,0000,0000*52

$GPGSA,A,3,23,09,26,31,03,16,22,,,,,,2.04,1.18,1.67*06

$GPRMC,204803.000,A,3017.3548,N,09744.1552,W,0.03,186.44,150217,,,D*7A

$GPVTG,186.44,T,,M,0.03,N,0.06,K,D*32

$GPGGA,204804.000,3017.3548,N,09744.1552,W,2,06,1.58,222.5,M,-22.5,M,0000,0000*50

$GPGSA,A,3,23,09,26,31,03,16,,,,,,,2.41,1.58,1.83*09

$GPRMC,204804.000,A,3017.3548,N,09744.1552,W,0.03,299.36,150217,,,D*75

$GPVTG,299.36,T,,M,0.03,N,0.06,K,D*3A

$GPGGA,204805.000,3017.3548,N,09744.1553,W,2,06,1.58,222.5,M,-22.5,M,0000,0000*50

$GPGSA,A,3,23,09,26,31,03,16,,,,,,,2.41,1.58,1.83*09

$GPRMC,204805.000,A,3017.3548,N,09744.1553,W,0.01,263.52,150217,,,D*70

$GPVTG,263.52,T,,M,0.01,N,0.02,K,D*3B

$GPGGA,204806.000,3017.3548,N,09744.1553,W,2,06,1.58,222.5,M,-22.5,M,0000,0000*53

$GPGSA,A,3,23,09,26,31,03,16,,,,,,,2.41,1.58,1.83*09

$GPGSV,3,1,12,16,75,080,39,23,55,329,48,03,53,230,23,51,53,198,28*77

$GPGSV,3,2,12,26,47,046,40,22,43,204,17,27,21,140,,09,18,314,35*7E

$GPGSV,3,3,12,31,14,062,30,07,12,268,,08,06,173,,14,,,20*4E

$GPRMC,204806.000,A,3017.3548,N,09744.1553,W,0.03,270.42,150217,,,D*72

$GPVTG,270.42,T,,M,0.03,N,0.06,K,D*3E

$GPGGA,204807.000,3017.3548,N,09744.1553,W,2,07,1.18,222.5,M,-22.5,M,0000,0000*57

$GPGSA,A,3,23,09,26,31,03,16,22,,,,,,2.04,1.18,1.67*06

$GPRMC,204807.000,A,3017.3548,N,09744.1553,W,0.03,153.88,150217,,,D*77

$GPVTG,153.88,T,,M,0.03,N,0.06,K,D*3A

$GPGGA,204808.000,3017.3548,N,09744.1553,W,2,07,1.18,222.5,M,-22.5,M,0000,0000*58

$GPGSA,A,3,23,09,26,31,03,16,22,,,,,,2.04,1.18,1.67*06

$GPRMC,204808.000,A,3017.3548,N,09744.1553,W,0.02,147.92,150217,,,D*77

$GPVTG,147.92,T,,M,0.02,N,0.04,K,D*37

$GPGGA,204809.000,3017.3547,N,09744.1553,W,2,07,1.18,222.5,M,-22.5,M,0000,0000*56

$GPGSA,A,3,23,09,26,31,03,16,22,,,,,,2.04,1.18,1.67*06

$GPRMC,204809.000,A,3017.3547,N,09744.1553,W,0.01,225.26,150217,,,D*72

$GPVTG,225.26,T,,M,0.01,N,0.03,K,D*3B

$GPGGA,204810.000,3017.3547,N,09744.1553,W,2,07,1.18,222.5,M,-22.5,M,0000,0000*5E

$GPGSA,A,3,23,09,26,31,03,16,22,,,,,,2.04,1.18,1.67*06

$GPRMC,204810.000,A,3017.3547,N,09744.1553,W,0.01,176.15,150217,,,D*7F

$GPVTG,176.15,T,,M,0.01,N,0.02,K,D*3F

$GPGGA,204811.000,3017.3547,N,09744.1553,W,2,06,1.58,222.5,M,-22.5,M,0000,0000*5A

$GPGSA,A,3,23,09,26,31,03,16,,,,,,,2.41,1.58,1.82*08

$GPGSV,3,1,12,16,75,079,36,23,55,329,43,03,53,230,18,51,53,198,27*72

$GPGSV,3,2,12,26,47,046,33,22,43,204,14,27,21,140,17,09,18,314,29*72

$GPGSV,3,3,12,31,14,062,25,07,12,268,,08,06,173,,14,,,17*4E

$GPRMC,204811.000,A,3017.3547,N,09744.1553,W,0.03,79.31,150217,,,D*44

$GPVTG,79.31,T,,M,0.03,N,0.05,K,D*02

$GPGGA,204812.000,3017.3547,N,09744.1553,W,2,07,1.18,222.5,M,-22.5,M,0000,0000*5C

$GPGSA,A,3,23,09,26,31,03,16,22,,,,,,2.04,1.18,1.67*06

$GPRMC,204812.000,A,3017.3547,N,09744.1553,W,0.00,128.14,150217,,,D*76

$GPVTG,128.14,T,,M,0.00,N,0.01,K,D*37

$GPGGA,204813.000,3017.3547,N,09744.1553,W,2,07,1.18,222.5,M,-22.5,M,0000,0000*5D

$GPGSA,A,3,23,09,26,31,03,16,22,,,,,,2.04,1.18,1.67*06

$GPRMC,204813.000,A,3017.3547,N,09744.1553,W,0.01,335.03,150217,,,D*7E

$GPVTG,335.03,T,,M,0.01,N,0.01,K,D*3E

$GPGGA,204814.000,3017.3547,N,09744.1553,W,2,07,1.18,222.5,M,-22.5,M,0000,0000*5A

$GPGSA,A,3,23,09,26,31,03,16,22,,,,,,2.04,1.18,1.67*06

$GPRMC,204814.000,A,3017.3547,N,09744.1553,W,0.00,99.45,150217,,,D*4F

$GPVTG,99.45,T,,M,0.00,N,0.01,K,D*08

$GPGGA,204815.000,3017.3547,N,09744.1553,W,2,07,1.18,222.5,M,-22.5,M,0000,0000*5B

$GPGSA,A,3,23,09,26,31,03,16,22,,,,,,2.04,1.18,1.67*06

$GPRMC,204815.000,A,3017.3547,N,09744.1553,W,0.00,324.69,150217,,,D*75

$GPVTG,324.69,T,,M,0.00,N,0.00,K,D*32

$GPGGA,204816.000,3017.3547,N,09744.1552,W,2,05,2.20,222.5,M,-22.5,M,0000,0000*53

$GPGSA,A,3,23,09,26,03,16,,,,,,,,4.18,2.20,3.56*07

$GPGSV,3,1,12,16,75,079,38,23,55,329,46,03,53,230,19,51,53,198,30*7E

$GPGSV,3,2,12,26,47,046,42,22,42,203,18,27,21,140,18,09,18,314,34*7D

$GPGSV,3,3,12,31,14,062,20,07,12,268,,08,06,173,,14,,,17*4B

$GPRMC,204816.000,A,3017.3547,N,09744.1552,W,0.08,101.83,150217,,,D*7E

$GPVTG,101.83,T,,M,0.08,N,0.15,K,D*3F

$GPGGA,204817.000,3017.3547,N,09744.1553,W,2,06,1.57,222.5,M,-22.5,M,0000,0000*53

$GPGSA,A,3,23,09,26,31,03,16,,,,,,,2.41,1.57,1.82*07

$GPRMC,204817.000,A,3017.3547,N,09744.1553,W,0.10,213.50,150217,,,D*79

$GPVTG,213.50,T,,M,0.10,N,0.19,K,D*34

$GPGGA,204818.000,3017.3547,N,09744.1553,W,2,07,1.18,222.5,M,-22.5,M,0000,0000*56

$GPGSA,A,3,23,09,26,31,03,16,22,,,,,,2.04,1.18,1.67*06

$GPRMC,204818.000,A,3017.3547,N,09744.1553,W,0.02,237.01,150217,,,D*77

$GPVTG,237.01,T,,M,0.02,N,0.04,K,D*39

$GPGGA,204819.000,3017.3547,N,09744.1553,W,2,07,1.18,222.5,M,-22.5,M,0000,0000*57

$GPGSA,A,3,23,09,26,31,03,16,22,,,,,,2.04,1.18,1.67*06

$GPRMC,204819.000,A,3017.3547,N,09744.1553,W,0.01,227.61,150217,,,D*72

$GPVTG,227.61,T,,M,0.01,N,0.02,K,D*3B

$GPGGA,204820.000,3017.3547,N,09744.1553,W,2,06,1.57,222.5,M,-22.5,M,0000,0000*57

$GPGSA,A,3,23,09,26,31,03,16,,,,,,,2.41,1.57,1.82*07

$GPRMC,204820.000,A,3017.3547,N,09744.1553,W,0.01,175.63,150217,,,D*7E

$GPVTG,175.63,T,,M,0.01,N,0.02,K,D*3D

$GPGGA,204821.000,3017.3547,N,09744.1553,W,2,06,1.57,222.5,M,-22.5,M,0000,0000*56

$GPGSA,A,3,23,09,26,31,03,16,,,,,,,2.41,1.57,1.82*07

$GPGSV,3,1,12,16,75,079,42,23,55,329,46,03,53,230,22,51,53,198,27*7D

$GPGSV,3,2,12,26,47,046,44,22,42,203,16,27,21,140,,09,18,314,34*7C

$GPGSV,3,3,12,31,14,062,30,07,12,268,,08,06,173,,14,,,15*48

$GPRMC,204821.000,A,3017.3547,N,09744.1553,W,0.03,111.46,150217,,,D*78

$GPVTG,111.46,T,,M,0.03,N,0.06,K,D*3E

$GPGGA,204822.000,3017.3547,N,09744.1553,W,2,06,1.57,222.5,M,-22.5,M,0000,0000*55

$GPGSA,A,3,23,09,26,31,03,16,,,,,,,2.41,1.57,1.82*07

$GPRMC,204822.000,A,3017.3547,N,09744.1553,W,0.04,103.88,150217,,,D*7D

$GPVTG,103.88,T,,M,0.04,N,0.08,K,D*36

$GPGGA,204823.000,3017.3547,N,09744.1553,W,2,06,1.57,222.5,M,-22.5,M,0000,0000*54

$GPGSA,A,3,23,09,26,31,03,16,,,,,,,2.41,1.57,1.82*07

$GPRMC,204823.000,A,3017.3547,N,09744.1553,W,0.03,15.03,150217,,,D*4E

$GPVTG,15.03,T,,M,0.03,N,0.06,K,D*0A

$GPGGA,204824.000,3017.3547,N,09744.1552,W,2,07,1.17,222.5,M,-22.5,M,0000,0000*57

$GPGSA,A,3,23,09,26,31,03,16,22,,,,,,2.04,1.17,1.67*09

$GPRMC,204824.000,A,3017.3547,N,09744.1552,W,0.06,4.60,150217,,,D*78

$GPVTG,4.60,T,,M,0.06,N,0.11,K,D*3C

$GPGGA,204825.000,3017.3547,N,09744.1552,W,2,07,1.17,222.5,M,-22.5,M,0000,0000*56

$GPGSA,A,3,23,09,26,31,03,16,22,,,,,,2.04,1.17,1.67*09

$GPRMC,204825.000,A,3017.3547,N,09744.1552,W,0.02,44.23,150217,,,D*4E

$GPVTG,44.23,T,,M,0.02,N,0.03,K,D*08

$GPGGA,204826.000,3017.3547,N,09744.1552,W,2,05,2.20,222.5,M,-22.5,M,0000,0000*50

$GPGSA,A,3,23,09,26,03,16,,,,,,,,4.18,2.20,3.55*04

$GPGSV,3,1,12,16,75,079,35,23,55,329,36,03,53,230,24,51,53,198,29*72

$GPGSV,3,2,12,26,47,046,40,22,42,203,16,27,21,140,20,09,18,314,37*79

$GPGSV,3,3,12,31,14,062,15,07,12,268,,08,06,173,,14,,,18*42

$GPRMC,204826.000,A,3017.3547,N,09744.1552,W,0.03,89.57,150217,,,D*4E

$GPVTG,89.57,T,,M,0.03,N,0.06,K,D*0E

$GPGGA,204827.000,3017.3547,N,09744.1552,W,2,06,1.65,222.5,M,-22.5,M,0000,0000*50

$GPGSA,A,3,23,09,26,03,16,22,,,,,,,3.33,1.65,2.89*08

$GPRMC,204827.000,A,3017.3547,N,09744.1552,W,0.01,178.78,150217,,,D*7F

$GPVTG,178.78,T,,M,0.01,N,0.02,K,D*3A

$GPGGA,204828.000,3017.3547,N,09744.1552,W,2,07,1.17,222.5,M,-22.5,M,0000,0000*5B

$GPGSA,A,3,23,09,26,31,03,16,22,,,,,,2.04,1.17,1.67*09

$GPRMC,204828.000,A,3017.3547,N,09744.1552,W,0.00,308.25,150217,,,D*7C

$GPVTG,308.25,T,,M,0.00,N,0.01,K,D*35

$GPGGA,204829.000,3017.3547,N,09744.1552,W,2,06,1.57,222.5,M,-22.5,M,0000,0000*5F

$GPGSA,A,3,23,09,26,31,03,16,,,,,,,2.40,1.57,1.82*06

$GPRMC,204829.000,A,3017.3547,N,09744.1552,W,0.01,121.01,150217,,,D*73

$GPVTG,121.01,T,,M,0.01,N,0.02,K,D*38

$GPGGA,204830.000,3017.3547,N,09744.1552,W,2,06,1.57,222.5,M,-22.5,M,0000,0000*57

$GPGSA,A,3,23,09,26,31,03,16,,,,,,,2.40,1.57,1.82*06

$GPRMC,204830.000,A,3017.3547,N,09744.1552,W,0.01,206.67,150217,,,D*7D

$GPVTG,206.67,T,,M,0.01,N,0.03,K,D*3F

$GPGGA,204831.000,3017.3547,N,09744.1553,W,2,07,1.17,222.5,M,-22.5,M,0000,0000*52

$GPGSA,A,3,23,09,26,31,03,16,22,,,,,,2.04,1.17,1.67*09

$GPGSV,3,1,12,16,75,079,35,23,55,329,36,03,53,230,15,51,53,198,27*7E

$GPGSV,3,2,12,26,47,046,39,22,42,203,17,27,21,140,16,09,18,314,33*77

$GPGSV,3,3,12,31,14,062,19,07,12,268,,08,06,173,,14,,,14*42

$GPRMC,204831.000,A,3017.3547,N,09744.1553,W,0.01,232.01,150217,,,D*7A

$GPVTG,232.01,T,,M,0.01,N,0.02,K,D*39

$GPGGA,204832.000,3017.3547,N,09744.1553,W,2,07,1.17,222.5,M,-22.5,M,0000,0000*51

$GPGSA,A,3,23,09,26,31,03,16,22,,,,,,2.04,1.17,1.67*09

$GPRMC,204832.000,A,3017.3547,N,09744.1553,W,0.01,162.23,150217,,,D*7F

$GPVTG,162.23,T,,M,0.01,N,0.02,K,D*3F

$GPGGA,204833.000,3017.3547,N,09744.1553,W,2,07,1.17,222.5,M,-22.5,M,0000,0000*50

$GPGSA,A,3,23,09,26,31,03,16,22,,,,,,2.04,1.17,1.67*09

$GPRMC,204833.000,A,3017.3547,N,09744.1553,W,0.03,139.94,150217,,,D*7E

$GPVTG,139.94,T,,M,0.03,N,0.05,K,D*38

$GPGGA,204834.000,3017.3547,N,09744.1553,W,2,06,1.57,222.5,M,-22.5,M,0000,0000*52

$GPGSA,A,3,23,09,26,31,03,16,,,,,,,2.40,1.57,1.82*06

$GPRMC,204834.000,A,3017.3547,N,09744.1553,W,0.01,121.68,150217,,,D*71

$GPVTG,121.68,T,,M,0.01,N,0.02,K,D*37

$GPGGA,204835.000,3017.3547,N,09744.1553,W,2,06,1.57,222.5,M,-22.5,M,0000,0000*53

$GPGSA,A,3,23,09,26,31,03,16,,,,,,,2.40,1.57,1.82*06

$GPRMC,204835.000,A,3017.3547,N,09744.1553,W,0.03,266.82,150217,,,D*76

$GPVTG,266.82,T,,M,0.03,N,0.06,K,D*35

$GPGGA,204836.000,3017.3547,N,09744.1553,W,2,06,1.57,222.5,M,-22.5,M,0000,0000*50

$GPGSA,A,3,23,09,26,31,03,16,,,,,,,2.40,1.57,1.82*06

$GPGSV,3,1,12,16,75,079,40,23,55,329,44,03,53,230,26,51,53,198,29*77

$GPGSV,3,2,12,26,47,046,45,22,42,203,17,27,21,140,23,09,19,314,38*70

$GPGSV,3,3,12,31,14,062,27,07,13,268,,08,06,172,,14,,,20*48

$GPRMC,204836.000,A,3017.3547,N,09744.1553,W,0.02,335.51,150217,,,D*7D

$GPVTG,335.51,T,,M,0.02,N,0.04,K,D*3F

$GPGGA,204837.000,3017.3547,N,09744.1553,W,2,06,1.57,222.5,M,-22.5,M,0000,0000*51

$GPGSA,A,3,23,09,26,31,03,16,,,,,,,2.40,1.57,1.82*06

$GPRMC,204837.000,A,3017.3547,N,09744.1553,W,0.02,331.70,150217,,,D*7B

$GPVTG,331.70,T,,M,0.02,N,0.03,K,D*3F

$GPGGA,204838.000,3017.3547,N,09744.1553,W,2,06,1.57,222.5,M,-22.5,M,0000,0000*5E

$GPGSA,A,3,23,09,26,31,03,16,,,,,,,2.40,1.57,1.82*06

$GPRMC,204838.000,A,3017.3547,N,09744.1553,W,0.04,133.93,150217,,,D*7F

$GPVTG,133.93,T,,M,0.04,N,0.07,K,D*30

$GPGGA,204839.000,3017.3547,N,09744.1553,W,2,06,1.57,222.5,M,-22.5,M,0000,0000*5F

$GPGSA,A,3,23,09,26,31,03,16,,,,,,,2.40,1.57,1.82*06

$GPRMC,204839.000,A,3017.3547,N,09744.1553,W,0.02,303.92,150217,,,D*78

$GPVTG,303.92,T,,M,0.02,N,0.03,K,D*32

$GPGGA,204840.000,3017.3547,N,09744.1553,W,2,07,1.17,222.5,M,-22.5,M,0000,0000*54

$GPGSA,A,3,23,09,26,31,03,16,22,,,,,,2.04,1.17,1.67*09

$GPRMC,204840.000,A,3017.3547,N,09744.1553,W,0.01,161.37,150217,,,D*7C

$GPVTG,161.37,T,,M,0.01,N,0.01,K,D*3A

$GPGGA,204841.000,3017.3547,N,09744.1553,W,2,07,1.17,222.5,M,-22.5,M,0000,0000*55

$GPGSA,A,3,23,09,26,31,03,16,22,,,,,,2.04,1.17,1.67*09

$GPGSV,3,1,12,16,75,079,40,23,55,329,25,03,53,230,22,51,53,198,40*7B

$GPGSV,3,2,12,26,47,046,35,22,42,203,18,27,21,140,19,09,19,314,29*71

$GPGSV,3,3,12,31,14,062,22,07,13,268,,08,06,172,,14,,,18*46

$GPRMC,204841.000,A,3017.3547,N,09744.1553,W,0.01,342.97,150217,,,D*74

$GPVTG,342.97,T,,M,0.01,N,0.02,K,D*30

$GPGGA,204842.000,3017.3547,N,09744.1553,W,2,06,1.57,222.5,M,-22.5,M,0000,0000*53

$GPGSA,A,3,23,09,26,31,03,16,,,,,,,2.40,1.57,1.82*06

$GPRMC,204842.000,A,3017.3547,N,09744.1553,W,0.00,77.33,150217,,,D*4D

$GPVTG,77.33,T,,M,0.00,N,0.01,K,D*09

$GPGGA,204843.000,3017.3547,N,09744.1553,W,2,07,1.17,222.5,M,-22.5,M,0000,0000*57

$GPGSA,A,3,23,09,26,31,03,16,22,,,,,,2.04,1.17,1.67*09

$GPRMC,204843.000,A,3017.3547,N,09744.1553,W,0.01,275.54,150217,,,D*7C

$GPVTG,275.54,T,,M,0.01,N,0.03,K,D*3B

$GPGGA,204844.000,3017.3547,N,09744.1553,W,2,07,1.17,222.5,M,-22.5,M,0000,0000*50

$GPGSA,A,3,23,09,26,31,03,16,22,,,,,,2.04,1.17,1.67*09

$GPRMC,204844.000,A,3017.3547,N,09744.1553,W,0.00,316.08,150217,,,D*77

$GPVTG,316.08,T,,M,0.00,N,0.00,K,D*34

$GPGGA,204845.000,3017.3547,N,09744.1553,W,2,07,1.17,222.5,M,-22.5,M,0000,0000*51

$GPGSA,A,3,23,09,26,31,03,16,22,,,,,,2.04,1.17,1.67*09

$GPRMC,204845.000,A,3017.3547,N,09744.1553,W,0.02,61.02,150217,,,D*4D

$GPVTG,61.02,T,,M,0.02,N,0.03,K,D*0C

$GPGGA,204846.000,3017.3547,N,09744.1553,W,2,07,1.17,222.5,M,-22.5,M,0000,0000*52

$GPGSA,A,3,23,09,26,31,03,16,22,,,,,,2.04,1.17,1.67*09

$GPGSV,3,1,11,16,75,078,38,23,55,329,38,03,53,230,18,51,53,198,37*73

$GPGSV,3,2,11,26,47,046,39,22,42,203,17,27,21,140,18,09,19,314,28*71

$GPGSV,3,3,11,31,14,062,25,07,13,268,,08,06,172,*4E

$GPRMC,204846.000,A,3017.3547,N,09744.1553,W,0.01,232.48,150217,,,D*77

$GPVTG,232.48,T,,M,0.01,N,0.02,K,D*34

$GPGGA,204847.000,3017.3547,N,09744.1553,W,2,07,1.17,222.5,M,-22.5,M,0000,0000*53

$GPGSA,A,3,23,09,26,31,03,16,22,,,,,,2.04,1.17,1.67*09

$GPRMC,204847.000,A,3017.3547,N,09744.1553,W,0.02,89.37,150217,,,D*4F

$GPVTG,89.37,T,,M,0.02,N,0.03,K,D*0C

$GPGGA,204848.000,3017.3547,N,09744.1553,W,2,07,1.17,222.5,M,-22.5,M,0000,0000*5C

$GPGSA,A,3,23,09,26,31,03,16,22,,,,,,2.04,1.17,1.67*09

$GPRMC,204848.000,A,3017.3547,N,09744.1553,W,0.01,193.11,150217,,,D*7D

$GPVTG,193.11,T,,M,0.01,N,0.02,K,D*30

$GPGGA,204849.000,3017.3547,N,09744.1553,W,2,07,1.17,222.5,M,-22.5,M,0000,0000*5D

$GPGSA,A,3,23,09,26,31,03,16,22,,,,,,2.04,1.17,1.66*08

$GPRMC,204849.000,A,3017.3547,N,09744.1553,W,0.03,172.33,150217,,,D*71

$GPVTG,172.33,T,,M,0.03,N,0.06,K,D*39

$GPGGA,204850.000,3017.3547,N,09744.1553,W,2,07,1.17,222.5,M,-22.5,M,0000,0000*55

$GPGSA,A,3,23,09,26,31,03,16,22,,,,,,2.04,1.17,1.66*08

$GPRMC,204850.000,A,3017.3547,N,09744.1553,W,0.02,235.03,150217,,,D*7B

$GPVTG,235.03,T,,M,0.02,N,0.03,K,D*3E

$GPGGA,204851.000,3017.3547,N,09744.1553,W,2,07,1.17,222.5,M,-22.5,M,0000,0000*54

$GPGSA,A,3,23,09,26,31,03,16,22,,,,,,2.04,1.17,1.66*08

$GPGSV,3,1,11,16,75,078,42,23,56,329,36,03,53,230,24,51,53,198,42*7E

$GPGSV,3,2,11,26,47,046,43,22,42,203,28,27,21,140,21,09,19,314,35*76

$GPGSV,3,3,11,31,14,062,29,07,13,268,,08,06,172,23*43

$GPRMC,204851.000,A,3017.3547,N,09744.1553,W,0.03,104.43,150217,,,D*7E

$GPVTG,104.43,T,,M,0.03,N,0.05,K,D*3C

$GPGGA,204852.000,3017.3547,N,09744.1553,W,2,07,1.17,222.5,M,-22.5,M,0000,0000*57

$GPGSA,A,3,23,09,26,31,03,16,22,,,,,,2.03,1.17,1.66*0F

$GPRMC,204852.000,A,3017.3547,N,09744.1553,W,0.01,143.88,150217,,,D*7B

$GPVTG,143.88,T,,M,0.01,N,0.01,K,D*3E

$GPGGA,204853.000,3017.3538,N,09744.1556,W,2,07,1.17,221.9,M,-22.5,M,0000,0000*54

$GPGSA,A,3,23,09,26,31,03,16,22,,,,,,2.04,1.17,1.66*08

$GPRMC,204853.000,A,3017.3538,N,09744.1556,W,0.06,199.91,150217,,,D*7F

$GPVTG,199.91,T,,M,0.06,N,0.11,K,D*37

$GPGGA,204854.000,3017.3531,N,09744.1560,W,2,07,1.17,221.9,M,-22.5,M,0000,0000*5F

$GPGSA,A,3,23,09,26,31,03,16,22,,,,,,2.03,1.17,1.66*0F

$GPRMC,204854.000,A,3017.3531,N,09744.1560,W,0.08,211.65,150217,,,D*72

$GPVTG,211.65,T,,M,0.08,N,0.15,K,D*35

$GPGGA,204855.000,3017.3529,N,09744.1562,W,2,07,1.17,222.2,M,-22.5,M,0000,0000*5D

$GPGSA,A,3,23,09,26,31,03,16,22,,,,,,2.04,1.17,1.66*08

$GPRMC,204855.000,A,3017.3529,N,09744.1562,W,0.06,173.49,150217,,,D*7F

$GPVTG,173.49,T,,M,0.06,N,0.10,K,D*37

$GPGGA,204856.000,3017.3527,N,09744.1560,W,2,07,1.17,222.0,M,-22.5,M,0000,0000*50

$GPGSA,A,3,23,09,26,31,03,16,22,,,,,,2.03,1.17,1.66*0F

$GPGSV,3,1,11,16,75,078,44,23,56,329,39,03,53,230,30,51,53,198,45*75

$GPGSV,3,2,11,26,46,046,45,22,42,203,26,27,21,139,19,09,19,314,40*78

$GPGSV,3,3,11,31,14,062,25,07,13,268,,08,06,172,23*4F

$GPRMC,204856.000,A,3017.3527,N,09744.1560,W,0.06,123.52,150217,,,D*7F

$GPVTG,123.52,T,,M,0.06,N,0.11,K,D*39

$GPGGA,204857.000,3017.3527,N,09744.1560,W,2,07,1.17,222.0,M,-22.5,M,0000,0000*51

$GPGSA,A,3,23,09,26,31,03,16,22,,,,,,2.03,1.17,1.66*0F

$GPRMC,204857.000,A,3017.3527,N,09744.1560,W,0.04,135.45,150217,,,D*7D

$GPVTG,135.45,T,,M,0.04,N,0.07,K,D*3D

$GPGGA,204858.000,3017.3526,N,09744.1560,W,2,06,1.64,222.0,M,-22.5,M,0000,0000*5A

$GPGSA,A,3,23,09,26,03,16,22,,,,,,,3.32,1.64,2.88*09

$GPRMC,204858.000,A,3017.3526,N,09744.1560,W,0.06,156.33,150217,,,D*75

$GPVTG,156.33,T,,M,0.06,N,0.11,K,D*3C

$GPGGA,204859.000,3017.3526,N,09744.1560,W,2,06,1.64,222.0,M,-22.5,M,0000,0000*5B

$GPGSA,A,3,23,09,26,03,16,22,,,,,,,3.32,1.64,2.88*09

$GPRMC,204859.000,A,3017.3526,N,09744.1560,W,0.08,187.13,150217,,,D*74

$GPVTG,187.13,T,,M,0.08,N,0.15,K,D*38

$GPGGA,204900.000,3017.3526,N,09744.1560,W,2,06,1.64,222.0,M,-22.5,M,0000,0000*56

$GPGSA,A,3,23,09,26,03,16,22,,,,,,,3.32,1.64,2.88*09

$GPRMC,204900.000,A,3017.3526,N,09744.1560,W,0.01,190.67,150217,,,D*75

$GPVTG,190.67,T,,M,0.01,N,0.02,K,D*32

$GPGGA,204901.000,3017.3526,N,09744.1560,W,2,07,1.17,222.0,M,-22.5,M,0000,0000*52

$GPGSA,A,3,23,09,26,31,03,16,22,,,,,,2.03,1.17,1.66*0F

$GPGSV,3,1,11,16,75,078,43,23,56,329,41,03,53,230,21,51,53,198,43*7B

$GPGSV,3,2,11,26,46,046,42,22,42,203,29,27,21,139,18,09,19,314,40*71

$GPGSV,3,3,11,31,14,062,31,07,13,268,,08,06,172,*4B

$GPRMC,204901.000,A,3017.3526,N,09744.1560,W,0.02,56.49,150217,,,D*40

$GPVTG,56.49,T,,M,0.02,N,0.04,K,D*00

$GPGGA,204902.000,3017.3526,N,09744.1560,W,2,06,1.64,221.9,M,-22.5,M,0000,0000*5E

$GPGSA,A,3,23,09,26,03,16,22,,,,,,,3.32,1.64,2.88*09

$GPRMC,204902.000,A,3017.3526,N,09744.1560,W,0.02,123.37,150217,,,D*79

$GPVTG,123.37,T,,M,0.02,N,0.03,K,D*3D

$GPGGA,204903.000,3017.3526,N,09744.1560,W,2,07,1.17,221.9,M,-22.5,M,0000,0000*5A

$GPGSA,A,3,23,09,26,31,03,16,22,,,,,,2.03,1.17,1.66*0F

$GPRMC,204903.000,A,3017.3526,N,09744.1560,W,0.01,141.58,150217,,,D*76

$GPVTG,141.58,T,,M,0.01,N,0.02,K,D*32

$GPGGA,204904.000,3017.3526,N,09744.1560,W,2,07,1.17,221.9,M,-22.5,M,0000,0000*5D

$GPGSA,A,3,23,09,26,31,03,16,22,,,,,,2.03,1.17,1.66*0F

$GPRMC,204904.000,A,3017.3526,N,09744.1560,W,0.06,58.92,150217,,,D*49

$GPVTG,58.92,T,,M,0.06,N,0.11,K,D*08

$GPGGA,204905.000,3017.3526,N,09744.1560,W,2,07,1.17,221.9,M,-22.5,M,0000,0000*5C

$GPGSA,A,3,23,09,26,31,03,16,22,,,,,,2.03,1.17,1.66*0F

$GPRMC,204905.000,A,3017.3526,N,09744.1560,W,0.07,146.53,150217,,,D*7A

$GPVTG,146.53,T,,M,0.07,N,0.14,K,D*3F

$GPGGA,204906.000,3017.3526,N,09744.1560,W,2,07,1.17,221.9,M,-22.5,M,0000,0000*5F

$GPGSA,A,3,23,09,26,31,03,16,22,,,,,,2.03,1.17,1.66*0F

$GPGSV,3,1,11,16,75,078,44,23,56,329,42,51,53,198,45,03,52,229,21*70

$GPGSV,3,2,11,26,46,046,43,22,42,203,34,27,21,139,23,09,19,314,33*70

$GPGSV,3,3,11,31,14,062,37,07,13,268,,08,06,172,21*4E

$GPRMC,204906.000,A,3017.3526,N,09744.1560,W,0.08,170.82,150217,,,D*7F

$GPVTG,170.82,T,,M,0.08,N,0.15,K,D*38

$GPGGA,204907.000,3017.3526,N,09744.1560,W,2,07,1.17,221.9,M,-22.5,M,0000,0000*5E

$GPGSA,A,3,23,09,26,31,03,16,22,,,,,,2.03,1.17,1.66*0F

$GPRMC,204907.000,A,3017.3526,N,09744.1560,W,0.11,91.77,150217,,,D*42

$GPVTG,91.77,T,,M,0.11,N,0.20,K,D*02

$GPGGA,204908.000,3017.3526,N,09744.1559,W,2,07,1.13,221.9,M,-22.5,M,0000,0000*5F

$GPGSA,A,3,23,09,26,31,03,16,22,,,,,,1.42,1.13,0.86*02

$GPRMC,204908.000,A,3017.3526,N,09744.1559,W,0.54,102.59,150217,,,D*71

$GPVTG,102.59,T,,M,0.54,N,1.00,K,D*37

$GPGGA,204909.000,3017.3526,N,09744.1558,W,2,07,1.13,222.0,M,-22.5,M,0000,0000*55

$GPGSA,A,3,23,09,26,31,03,16,22,,,,,,1.42,1.13,0.86*02

$GPRMC,204909.000,A,3017.3526,N,09744.1558,W,0.62,121.41,150217,,,D*7C

$GPVTG,121.41,T,,M,0.62,N,1.15,K,D*3E

$GPGGA,204910.000,3017.3525,N,09744.1552,W,2,07,1.13,222.1,M,-22.5,M,0000,0000*55

$GPGSA,A,3,23,09,26,31,03,16,22,,,,,,1.42,1.13,0.86*02

$GPRMC,204910.000,A,3017.3525,N,09744.1552,W,1.28,115.11,150217,,,D*70

$GPVTG,115.11,T,,M,1.28,N,2.37,K,D*30

$GPGGA,204911.000,3017.3525,N,09744.1551,W,2,07,1.13,223.2,M,-22.5,M,0000,0000*55

$GPGSA,A,3,23,09,26,31,03,16,22,,,,,,1.42,1.13,0.86*02

$GPGSV,3,1,11,16,75,078,46,23,56,329,43,51,53,198,43,03,52,229,25*71

$GPGSV,3,2,11,26,46,046,44,22,42,203,41,27,21,139,22,09,19,314,37*70

$GPGSV,3,3,11,31,14,062,39,07,13,268,,08,06,172,25*44

$GPRMC,204911.000,A,3017.3525,N,09744.1551,W,1.27,109.04,150217,,,D*74

$GPVTG,109.04,T,,M,1.27,N,2.35,K,D*34

$GPGGA,204912.000,3017.3528,N,09744.1544,W,2,07,1.13,223.2,M,-22.5,M,0000,0000*5F

$GPGSA,A,3,23,09,26,31,03,16,22,,,,,,1.42,1.13,0.86*02

$GPRMC,204912.000,A,3017.3528,N,09744.1544,W,1.21,100.00,150217,,,D*75

$GPVTG,100.00,T,,M,1.21,N,2.24,K,D*3F

$GPGGA,204913.000,3017.3527,N,09744.1537,W,2,07,1.13,223.0,M,-22.5,M,0000,0000*57

$GPGSA,A,3,23,09,26,31,03,16,22,,,,,,1.42,1.13,0.86*02

$GPRMC,204913.000,A,3017.3527,N,09744.1537,W,1.57,108.40,150217,,,D*72

$GPVTG,108.40,T,,M,1.57,N,2.90,K,D*3D

$GPGGA,204914.000,3017.3524,N,09744.1530,W,2,07,1.13,222.5,M,-22.5,M,0000,0000*50

$GPGSA,A,3,23,09,26,31,03,16,22,,,,,,1.42,1.13,0.86*02

$GPRMC,204914.000,A,3017.3524,N,09744.1530,W,1.81,106.76,150217,,,D*71

$GPVTG,106.76,T,,M,1.81,N,3.36,K,D*30

$GPGGA,204915.000,3017.3522,N,09744.1524,W,2,07,1.13,222.2,M,-22.5,M,0000,0000*55

$GPGSA,A,3,23,09,26,31,03,16,22,,,,,,1.42,1.13,0.86*02

$GPRMC,204915.000,A,3017.3522,N,09744.1524,W,1.40,102.35,150217,,,D*7D

$GPVTG,102.35,T,,M,1.40,N,2.60,K,D*3C

$GPGGA,204916.000,3017.3519,N,09744.1519,W,2,07,1.13,221.9,M,-22.5,M,0000,0000*58

$GPGSA,A,3,23,09,26,31,03,16,22,,,,,,1.42,1.13,0.86*02

$GPGSV,3,1,12,16,75,078,42,23,56,329,44,51,53,198,44,03,52,229,35*77

$GPGSV,3,2,12,26,46,046,31,22,42,203,44,27,21,139,21,09,19,314,35*75

$GPGSV,3,3,12,14,15,116,,31,14,062,29,07,13,268,,08,06,172,28*7C

$GPRMC,204916.000,A,3017.3519,N,09744.1519,W,1.42,105.16,150217,,,D*7C

$GPVTG,105.16,T,,M,1.42,N,2.64,K,D*3C

$GPGGA,204917.000,3017.3516,N,09744.1513,W,2,07,1.13,221.6,M,-22.5,M,0000,0000*53

$GPGSA,A,3,23,09,26,31,03,16,22,,,,,,1.42,1.13,0.86*02

$GPRMC,204917.000,A,3017.3516,N,09744.1513,W,1.54,105.24,150217,,,D*7E

$GPVTG,105.24,T,,M,1.54,N,2.86,K,D*36

$GPGGA,204918.000,3017.3511,N,09744.1508,W,2,07,1.13,221.3,M,-22.5,M,0000,0000*54

$GPGSA,A,3,23,09,26,31,03,16,22,,,,,,1.42,1.13,0.86*02

$GPRMC,204918.000,A,3017.3511,N,09744.1508,W,1.46,104.25,150217,,,D*7F

$GPVTG,104.25,T,,M,1.46,N,2.70,K,D*3C

$GPGGA,204919.000,3017.3504,N,09744.1505,W,2,07,1.13,221.0,M,-22.5,M,0000,0000*5F

$GPGSA,A,3,23,09,26,31,03,16,22,,,,,,1.42,1.13,0.86*02

$GPRMC,204919.000,A,3017.3504,N,09744.1505,W,1.58,97.56,150217,,,D*47

$GPVTG,97.56,T,,M,1.58,N,2.92,K,D*00

$GPGGA,204920.000,3017.3500,N,09744.1501,W,2,07,1.13,220.9,M,-22.5,M,0000,0000*5D

$GPGSA,A,3,23,09,26,31,03,16,22,,,,,,1.42,1.13,0.86*02

$GPRMC,204920.000,A,3017.3500,N,09744.1501,W,1.49,101.07,150217,,,D*77

$GPVTG,101.07,T,,M,1.49,N,2.76,K,D*30

$GPGGA,204921.000,3017.3494,N,09744.1500,W,2,07,1.13,220.7,M,-22.5,M,0000,0000*5F

$GPGSA,A,3,23,09,26,31,03,16,22,,,,,,1.42,1.13,0.86*02

$GPGSV,3,1,12,16,75,076,27,23,56,329,47,51,53,198,43,03,52,229,48*74

$GPGSV,3,2,12,26,46,046,22,22,42,203,44,27,21,139,24,09,19,314,34*73

$GPGSV,3,3,12,14,15,116,,31,14,062,24,07,13,268,,08,06,172,29*70

$GPRMC,204921.000,A,3017.3494,N,09744.1500,W,1.23,101.87,150217,,,D*7F

$GPVTG,101.87,T,,M,1.23,N,2.28,K,D*3F

$GPGGA,204922.000,3017.3489,N,09744.1498,W,2,07,1.13,220.5,M,-22.5,M,0000,0000*52

$GPGSA,A,3,23,09,26,31,03,16,22,,,,,,1.42,1.13,0.86*02

$GPRMC,204922.000,A,3017.3489,N,09744.1498,W,1.20,102.04,150217,,,D*7B

$GPVTG,102.04,T,,M,1.20,N,2.23,K,D*3F

$GPGGA,204923.000,3017.3485,N,09744.1498,W,2,06,1.15,220.4,M,-22.5,M,0000,0000*59

$GPGSA,A,3,23,09,26,31,03,22,,,,,,,1.46,1.15,0.90*00

$GPRMC,204923.000,A,3017.3485,N,09744.1498,W,1.08,102.02,150217,,,D*7A

$GPVTG,102.02,T,,M,1.08,N,2.01,K,D*33

$GPGGA,204924.000,3017.3483,N,09744.1498,W,2,06,1.15,220.4,M,-22.5,M,0000,0000*58

$GPGSA,A,3,23,09,26,31,03,22,,,,,,,1.46,1.15,0.90*00

$GPRMC,204924.000,A,3017.3483,N,09744.1498,W,0.86,100.78,150217,,,D*73

$GPVTG,100.78,T,,M,0.86,N,1.59,K,D*35

$GPGGA,204925.000,3017.3482,N,09744.1497,W,2,07,1.13,220.5,M,-22.5,M,0000,0000*51

$GPGSA,A,3,23,09,26,31,03,16,22,,,,,,1.42,1.13,0.86*02

$GPRMC,204925.000,A,3017.3482,N,09744.1497,W,0.72,104.80,150217,,,D*74

$GPVTG,104.80,T,,M,0.72,N,1.34,K,D*36

$GPGGA,204926.000,3017.3480,N,09744.1498,W,2,06,1.15,220.6,M,-22.5,M,0000,0000*5B

$GPGSA,A,3,23,09,26,31,03,22,,,,,,,1.46,1.15,0.90*00

$GPGSV,3,1,12,16,75,076,15,23,56,329,36,51,53,198,39,03,52,229,43*75

$GPGSV,3,2,12,26,46,046,12,22,42,203,42,27,21,139,19,09,19,314,36*7A

$GPGSV,3,3,12,14,15,116,20,31,14,062,26,07,13,268,,08,06,172,19*73

$GPRMC,204926.000,A,3017.3480,N,09744.1498,W,0.54,97.94,150217,,,D*40

$GPVTG,97.94,T,,M,0.54,N,0.99,K,D*0A

$GPGGA,204927.000,3017.3480,N,09744.1498,W,2,07,1.13,220.5,M,-22.5,M,0000,0000*5E

$GPGSA,A,3,23,09,26,31,03,16,22,,,,,,1.42,1.13,0.86*02

$GPRMC,204927.000,A,3017.3480,N,09744.1498,W,0.46,111.44,150217,,,D*70

$GPVTG,111.44,T,,M,0.46,N,0.85,K,D*36

$GPGGA,204928.000,3017.3479,N,09744.1497,W,2,07,1.13,220.5,M,-22.5,M,0000,0000*58

$GPGSA,A,3,23,09,26,31,03,16,22,,,,,,1.42,1.13,0.86*02

$GPRMC,204928.000,A,3017.3479,N,09744.1497,W,0.48,103.74,150217,,,D*78

$GPVTG,103.74,T,,M,0.48,N,0.89,K,D*34

$GPGGA,204929.000,3017.3478,N,09744.1497,W,2,07,1.13,220.5,M,-22.5,M,0000,0000*58

$GPGSA,A,3,23,09,26,31,03,16,22,,,,,,1.42,1.13,0.86*02

$GPRMC,204929.000,A,3017.3478,N,09744.1497,W,0.39,85.16,150217,,,D*45

$GPVTG,85.16,T,,M,0.39,N,0.72,K,D*0D
